millis,roll,pitch,yaw,AccX,AccY,AccZ,GyroX,GyroY,GyroZ,CurrentTemp,CurrentPres,altitude,altitude_lissee,max_altitude,phase_vol,source,time_sec,alt
355458.0,2.06,0.16,1.81,-8.99,0.18,-2.51,-0.01,0.03,-0.0,16.32,101362.14,3.48,3.46,3.68,0.0,vol 6,-0.992,0.0124137931034487
355468.0,2.06,0.16,1.81,-8.99,0.17,-2.51,-0.02,0.03,-0.0,16.32,101362.14,3.48,3.47,3.68,0.0,vol 6,-0.982,0.0124137931034487
355478.0,2.06,0.16,1.81,-8.99,0.18,-2.5,-0.02,0.03,-0.0,16.32,101361.97,3.5,3.47,3.68,0.0,vol 6,-0.972,0.0324137931034487
355488.0,2.06,0.16,1.81,-8.99,0.18,-2.51,-0.02,0.03,-0.01,16.32,101361.97,3.5,3.47,3.68,0.0,vol 6,-0.962,0.0324137931034487
355498.0,2.06,0.16,1.81,-8.99,0.19,-2.5,-0.02,0.03,-0.01,16.32,101361.97,3.5,3.47,3.68,0.0,vol 6,-0.952,0.0324137931034487
355507.0,2.06,0.16,1.81,-8.99,0.19,-2.5,-0.02,0.03,-0.01,16.32,101361.97,3.5,3.48,3.68,0.0,vol 6,-0.943,0.0324137931034487
355517.0,2.06,0.16,1.81,-8.99,0.19,-2.49,-0.02,0.03,-0.01,16.32,101361.97,3.5,3.48,3.68,0.0,vol 6,-0.933,0.0324137931034487
355527.0,2.06,0.16,1.81,-8.99,0.19,-2.49,-0.02,0.04,-0.01,16.32,101361.97,3.5,3.48,3.68,0.0,vol 6,-0.923,0.0324137931034487
355537.0,2.06,0.16,1.81,-8.99,0.18,-2.51,-0.03,0.04,-0.01,16.32,101361.97,3.5,3.48,3.68,0.0,vol 6,-0.913,0.0324137931034487
355547.0,2.05,0.16,1.81,-8.98,0.16,-2.51,-0.03,0.04,-0.01,16.32,101361.81,3.51,3.48,3.68,0.0,vol 6,-0.903,0.0424137931034485
355557.0,2.05,0.16,1.81,-8.98,0.15,-2.53,-0.02,0.04,-0.01,16.32,101361.81,3.51,3.49,3.68,0.0,vol 6,-0.893,0.0424137931034485
355567.0,2.05,0.15,1.81,-8.98,0.15,-2.54,-0.01,0.04,-0.01,16.32,101361.81,3.51,3.49,3.68,0.0,vol 6,-0.883,0.0424137931034485
355577.0,2.05,0.15,1.81,-8.98,0.16,-2.55,-0.01,0.04,-0.01,16.32,101361.81,3.51,3.49,3.68,0.0,vol 6,-0.873,0.0424137931034485
355587.0,2.05,0.15,1.81,-8.98,0.16,-2.54,-0.01,0.03,-0.01,16.32,101361.81,3.51,3.49,3.68,0.0,vol 6,-0.863,0.0424137931034485
355597.0,2.06,0.15,1.81,-8.98,0.18,-2.54,-0.01,0.03,-0.0,16.32,101361.81,3.51,3.5,3.68,0.0,vol 6,-0.853,0.0424137931034485
355607.0,2.06,0.15,1.81,-8.98,0.19,-2.54,-0.02,0.03,-0.0,16.32,101361.81,3.51,3.5,3.68,0.0,vol 6,-0.843,0.0424137931034485
355617.0,2.06,0.15,1.81,-8.98,0.2,-2.54,-0.02,0.03,-0.0,16.32,101361.81,3.51,3.5,3.68,0.0,vol 6,-0.833,0.0424137931034485
355626.0,2.06,0.16,1.81,-8.99,0.19,-2.53,-0.02,0.03,-0.0,16.32,101361.81,3.51,3.5,3.68,0.0,vol 6,-0.824,0.0424137931034485
355637.0,2.06,0.16,1.81,-8.98,0.18,-2.53,-0.02,0.03,-0.0,16.32,101361.81,3.51,3.5,3.68,0.0,vol 6,-0.813,0.0424137931034485
355647.0,2.05,0.16,1.81,-8.98,0.17,-2.54,-0.02,0.03,-0.0,16.32,101361.81,3.51,3.5,3.68,0.0,vol 6,-0.803,0.0424137931034485
355657.0,2.05,0.16,1.81,-8.99,0.15,-2.54,-0.02,0.03,-0.0,16.32,101361.97,3.5,3.5,3.68,0.0,vol 6,-0.793,0.0324137931034487
355667.0,2.05,0.16,1.81,-8.99,0.15,-2.54,-0.02,0.03,-0.0,16.32,101361.97,3.5,3.5,3.68,0.0,vol 6,-0.783,0.0324137931034487
355676.0,2.05,0.16,1.81,-8.99,0.15,-2.54,-0.01,0.03,-0.0,16.32,101361.97,3.5,3.5,3.68,0.0,vol 6,-0.774,0.0324137931034487
355686.0,2.05,0.16,1.81,-8.98,0.16,-2.53,-0.01,0.03,-0.0,16.32,101361.97,3.5,3.5,3.68,0.0,vol 6,-0.764,0.0324137931034487
355696.0,2.05,0.16,1.81,-8.98,0.17,-2.52,-0.0,0.03,-0.0,16.32,101362.38,3.46,3.5,3.68,0.0,vol 6,-0.754,-0.0075862068965513
355706.0,2.06,0.17,1.81,-8.98,0.2,-2.5,-0.0,0.03,-0.0,16.32,101362.38,3.46,3.49,3.68,0.0,vol 6,-0.744,-0.0075862068965513
355716.0,2.06,0.17,1.81,-8.98,0.21,-2.49,-0.01,0.03,-0.0,16.32,101362.38,3.46,3.49,3.68,0.0,vol 6,-0.734,-0.0075862068965513
355726.0,2.06,0.17,1.81,-8.98,0.21,-2.49,-0.01,0.03,-0.0,16.32,101362.38,3.46,3.49,3.68,0.0,vol 6,-0.724,-0.0075862068965513
355735.0,2.06,0.17,1.81,-8.98,0.2,-2.49,-0.02,0.03,-0.0,16.32,101361.97,3.5,3.49,3.68,0.0,vol 6,-0.715,0.0324137931034487
355746.0,2.06,0.17,1.81,-8.98,0.19,-2.49,-0.03,0.03,-0.0,16.32,101361.97,3.5,3.49,3.68,0.0,vol 6,-0.704,0.0324137931034487
355756.0,2.05,0.17,1.81,-8.99,0.17,-2.49,-0.02,0.03,-0.0,16.32,101361.97,3.5,3.49,3.68,0.0,vol 6,-0.694,0.0324137931034487
355765.0,2.05,0.17,1.81,-8.98,0.16,-2.5,-0.02,0.03,-0.0,16.32,101361.97,3.5,3.49,3.68,0.0,vol 6,-0.685,0.0324137931034487
355775.0,2.05,0.17,1.81,-8.99,0.16,-2.51,-0.01,0.03,-0.0,16.32,101362.21,3.48,3.49,3.68,0.0,vol 6,-0.675,0.0124137931034487
355785.0,2.05,0.17,1.81,-8.99,0.17,-2.51,-0.01,0.03,-0.0,16.32,101362.21,3.48,3.49,3.68,0.0,vol 6,-0.665,0.0124137931034487
355795.0,2.05,0.17,1.81,-8.99,0.17,-2.5,-0.01,0.03,-0.0,16.32,101362.21,3.48,3.49,3.68,0.0,vol 6,-0.655,0.0124137931034487
355805.0,2.05,0.17,1.81,-8.99,0.18,-2.5,-0.02,0.03,-0.0,16.32,101362.21,3.48,3.49,3.68,0.0,vol 6,-0.645,0.0124137931034487
355815.0,2.05,0.17,1.81,-8.99,0.18,-2.5,-0.02,0.03,-0.0,16.32,101362.21,3.48,3.48,3.68,0.0,vol 6,-0.635,0.0124137931034487
355825.0,2.06,0.17,1.81,-8.98,0.19,-2.5,-0.02,0.03,-0.0,16.32,101362.21,3.48,3.48,3.68,0.0,vol 6,-0.625,0.0124137931034487
355835.0,2.06,0.17,1.81,-8.99,0.19,-2.51,-0.01,0.03,-0.01,16.32,101362.21,3.48,3.48,3.68,0.0,vol 6,-0.615,0.0124137931034487
355845.0,2.06,0.17,1.81,-9.0,0.19,-2.51,-0.01,0.04,-0.01,16.32,101362.05,3.49,3.48,3.68,0.0,vol 6,-0.605,0.0224137931034489
355855.0,2.06,0.17,1.81,-8.99,0.19,-2.51,-0.02,0.04,-0.01,16.32,101362.05,3.49,3.48,3.68,0.0,vol 6,-0.595,0.0224137931034489
355865.0,2.05,0.17,1.81,-8.99,0.18,-2.52,-0.03,0.04,-0.01,16.32,101362.05,3.49,3.49,3.68,0.0,vol 6,-0.585,0.0224137931034489
355875.0,2.05,0.17,1.81,-8.99,0.17,-2.52,-0.03,0.03,-0.01,16.32,101362.05,3.49,3.49,3.68,0.0,vol 6,-0.575,0.0224137931034489
355885.0,2.05,0.17,1.81,-8.99,0.15,-2.52,-0.03,0.03,-0.01,16.32,101361.88,3.5,3.49,3.68,0.0,vol 6,-0.565,0.0324137931034487
355895.0,2.04,0.17,1.81,-8.99,0.15,-2.51,-0.02,0.04,-0.01,16.32,101361.88,3.5,3.49,3.68,0.0,vol 6,-0.555,0.0324137931034487
355905.0,2.05,0.17,1.81,-8.99,0.16,-2.51,-0.01,0.04,-0.01,16.32,101361.88,3.5,3.49,3.68,0.0,vol 6,-0.545,0.0324137931034487
355914.0,2.05,0.17,1.81,-8.99,0.17,-2.51,-0.01,0.04,-0.01,16.32,101361.88,3.5,3.49,3.68,0.0,vol 6,-0.536,0.0324137931034487
355924.0,2.05,0.17,1.81,-9.0,0.19,-2.51,-0.01,0.03,-0.01,16.32,101361.88,3.5,3.49,3.68,0.0,vol 6,-0.526,0.0324137931034487
355934.0,2.06,0.17,1.81,-8.99,0.2,-2.51,-0.02,0.03,-0.01,16.32,101361.88,3.5,3.49,3.68,0.0,vol 6,-0.516,0.0324137931034487
355944.0,2.06,0.17,1.81,-8.99,0.2,-2.51,-0.02,0.03,-0.01,16.32,101361.88,3.5,3.5,3.68,0.0,vol 6,-0.506,0.0324137931034487
355955.0,2.05,0.17,1.81,-8.98,0.19,-2.51,-0.03,0.03,-0.01,16.32,101362.11,3.49,3.49,3.68,0.0,vol 6,-0.495,0.0224137931034489
355965.0,2.05,0.17,1.81,-9.0,0.18,-2.52,-0.02,0.03,-0.01,16.32,101362.11,3.49,3.49,3.68,0.0,vol 6,-0.485,0.0224137931034489
355975.0,2.04,0.17,1.81,-9.0,0.15,-2.53,-0.02,0.03,-0.01,16.32,101362.11,3.49,3.49,3.68,0.0,vol 6,-0.475,0.0224137931034489
355985.0,2.04,0.17,1.81,-8.99,0.14,-2.53,-0.02,0.03,-0.01,16.32,101362.11,3.49,3.49,3.68,0.0,vol 6,-0.465,0.0224137931034489
355995.0,2.04,0.17,1.81,-8.99,0.13,-2.54,-0.02,0.03,-0.0,16.32,101362.11,3.49,3.49,3.68,0.0,vol 6,-0.455,0.0224137931034489
356005.0,2.04,0.17,1.81,-8.99,0.13,-2.54,-0.02,0.03,-0.0,16.32,101362.11,3.49,3.49,3.68,0.0,vol 6,-0.445,0.0224137931034489
356014.0,2.04,0.17,1.81,-8.99,0.13,-2.54,-0.01,0.03,-0.0,16.32,101362.11,3.49,3.49,3.68,0.0,vol 6,-0.436,0.0224137931034489
356025.0,2.04,0.17,1.81,-8.99,0.15,-2.54,-0.01,0.03,-0.0,16.32,101362.11,3.49,3.49,3.68,0.0,vol 6,-0.425,0.0224137931034489
356034.0,2.05,0.17,1.81,-8.99,0.17,-2.52,-0.0,0.03,-0.0,16.32,101362.11,3.49,3.49,3.68,0.0,vol 6,-0.416,0.0224137931034489
356045.0,2.05,0.17,1.81,-8.99,0.18,-2.52,-0.0,0.03,-0.0,16.32,101362.11,3.49,3.49,3.68,0.0,vol 6,-0.405,0.0224137931034489
356055.0,2.05,0.17,1.81,-8.99,0.19,-2.51,-0.01,0.03,-0.0,16.32,101362.11,3.49,3.49,3.68,0.0,vol 6,-0.395,0.0224137931034489
356065.0,2.05,0.18,1.81,-8.99,0.19,-2.5,-0.02,0.03,-0.0,16.32,101361.94,3.5,3.49,3.68,0.0,vol 6,-0.385,0.0324137931034487
356075.0,2.05,0.18,1.81,-8.99,0.18,-2.5,-0.03,0.03,0.0,16.32,101361.94,3.5,3.49,3.68,0.0,vol 6,-0.375,0.0324137931034487
356085.0,2.05,0.18,1.81,-8.99,0.17,-2.51,-0.03,0.03,0.0,16.32,101361.94,3.5,3.49,3.68,0.0,vol 6,-0.365,0.0324137931034487
356095.0,2.04,0.18,1.81,-8.98,0.15,-2.51,-0.02,0.03,-0.0,16.32,101361.94,3.5,3.49,3.68,0.0,vol 6,-0.355,0.0324137931034487
356104.0,2.04,0.18,1.81,-8.98,0.14,-2.51,-0.01,0.03,-0.0,16.32,101361.94,3.5,3.49,3.68,0.0,vol 6,-0.346,0.0324137931034487
356114.0,2.04,0.17,1.81,-8.99,0.14,-2.52,-0.0,0.03,-0.0,16.32,101361.94,3.5,3.49,3.68,0.0,vol 6,-0.336,0.0324137931034487
356124.0,2.04,0.18,1.81,-8.99,0.16,-2.52,-0.0,0.03,-0.0,16.32,101361.94,3.5,3.49,3.68,0.0,vol 6,-0.326,0.0324137931034487
356134.0,2.05,0.18,1.81,-8.99,0.18,-2.51,-0.01,0.03,-0.0,16.32,101361.94,3.5,3.49,3.68,0.0,vol 6,-0.316,0.0324137931034487
356144.0,2.06,0.18,1.81,-8.99,0.21,-2.5,-0.01,0.03,-0.0,16.32,101361.94,3.5,3.5,3.68,0.0,vol 6,-0.306,0.0324137931034487
356154.0,2.06,0.18,1.81,-8.99,0.22,-2.5,-0.01,0.03,-0.0,16.32,101361.94,3.5,3.5,3.68,0.0,vol 6,-0.296,0.0324137931034487
356165.0,2.06,0.18,1.81,-8.99,0.23,-2.49,-0.01,0.03,-0.0,16.32,101361.94,3.5,3.5,3.68,0.0,vol 6,-0.285,0.0324137931034487
356175.0,2.06,0.18,1.81,-8.99,0.23,-2.49,-0.02,0.03,-0.01,16.32,101361.94,3.47,3.49,3.68,0.0,vol 6,-0.275,0.0024137931034489
356185.0,2.06,0.18,1.81,-9.0,0.21,-2.49,-0.02,0.03,-0.01,16.32,101362.34,3.47,3.49,3.68,0.0,vol 6,-0.265,0.0024137931034489
356195.0,2.05,0.18,1.81,-9.01,0.19,-2.5,-0.03,0.03,-0.01,16.32,101362.34,3.47,3.49,3.68,0.0,vol 6,-0.255,0.0024137931034489
356205.0,2.06,0.13,1.81,-8.46,0.23,-2.57,-0.02,0.03,-0.01,16.32,101362.34,3.47,3.49,3.68,0.0,vol 6,-0.245,0.0024137931034489
356215.0,2.07,0.13,1.81,-8.77,0.28,-2.65,-0.06,0.04,0.0,16.32,101362.34,3.47,3.48,3.68,0.0,vol 6,-0.235,0.0024137931034489
356225.0,2.05,0.18,1.81,-9.08,0.2,-2.53,-0.04,0.03,0.01,16.32,101362.34,3.47,3.48,3.68,0.0,vol 6,-0.225,0.0024137931034489
356234.0,2.05,0.18,1.81,-9.1,0.2,-2.54,-0.05,0.02,-0.01,16.32,101362.34,3.47,3.48,3.68,0.0,vol 6,-0.216,0.0024137931034489
356244.0,2.04,0.19,1.81,-8.9,0.14,-2.43,-0.07,0.03,-0.01,16.32,101362.34,3.47,3.48,3.68,0.0,vol 6,-0.206,0.0024137931034489
356255.0,2.04,0.19,1.81,-8.93,0.14,-2.48,-0.05,0.03,0.0,16.32,101362.52,3.45,3.48,3.68,0.0,vol 6,-0.195,-0.0175862068965511
356264.0,2.04,0.2,1.81,-9.02,0.15,-2.45,-0.03,0.03,-0.0,16.32,101362.52,3.45,3.47,3.68,0.0,vol 6,-0.186,-0.0175862068965511
356274.0,2.04,0.19,1.81,-9.07,0.17,-2.49,-0.01,0.04,-0.0,16.32,101362.52,3.45,3.47,3.68,0.0,vol 6,-0.176,-0.0175862068965511
356284.0,2.04,0.18,1.81,-8.94,0.16,-2.51,0.02,0.04,-0.0,16.32,101362.52,3.45,3.47,3.68,0.0,vol 6,-0.166,-0.0175862068965511
356294.0,2.06,0.17,1.81,-9.0,0.23,-2.58,0.04,0.04,-0.0,16.32,101362.52,3.45,3.47,3.68,0.0,vol 6,-0.156,-0.0175862068965511
356304.0,2.06,0.17,1.81,-9.08,0.22,-2.58,0.02,0.04,-0.0,16.32,101362.52,3.45,3.47,3.68,0.0,vol 6,-0.146,-0.0175862068965511
356314.0,2.06,0.15,1.81,-8.98,0.23,-2.65,0.0,0.03,-0.0,16.32,101362.52,3.45,3.46,3.68,0.0,vol 6,-0.136,-0.0175862068965511
356324.0,2.05,0.18,1.81,-9.02,0.2,-2.54,-0.03,0.02,-0.01,16.32,101362.68,3.44,3.46,3.68,0.0,vol 6,-0.126,-0.0275862068965513
356333.0,2.05,0.19,1.81,-9.08,0.21,-2.51,-0.05,0.02,-0.0,16.32,101362.68,3.44,3.46,3.68,0.0,vol 6,-0.117,-0.0275862068965513
356343.0,2.05,0.2,1.81,-8.98,0.19,-2.44,-0.08,0.02,-0.0,16.32,101362.68,3.44,3.46,3.68,0.0,vol 6,-0.107,-0.0275862068965513
356354.0,2.04,0.22,1.81,-9.06,0.15,-2.38,-0.11,0.02,-0.01,16.32,101362.68,3.44,3.46,3.68,0.0,vol 6,-0.096,-0.0275862068965513
356364.0,2.06,0.18,1.81,-8.96,0.25,-2.5,-0.12,0.02,-0.0,16.32,101362.68,3.44,3.45,3.68,0.0,vol 6,-0.086,-0.0275862068965513
356374.0,2.09,0.16,1.81,-9.05,0.36,-2.6,-0.13,0.01,-0.0,16.32,101362.68,3.44,3.45,3.68,0.0,vol 6,-0.076,-0.0275862068965513
356384.0,2.1,0.17,1.81,-9.17,0.44,-2.6,-0.18,-0.0,-0.01,16.32,101362.68,3.44,3.45,3.68,0.0,vol 6,-0.066,-0.0275862068965513
356394.0,2.12,0.14,1.81,-9.2,0.53,-2.71,-0.23,-0.03,-0.03,16.32,101362.68,3.44,3.45,3.68,0.0,vol 6,-0.056,-0.0275862068965513
356404.0,2.11,0.18,1.81,-9.73,0.54,-2.67,-0.32,-0.04,-0.03,16.32,101362.52,3.45,3.45,3.68,0.0,vol 6,-0.046,-0.0175862068965511
356414.0,2.13,0.18,1.81,-10.69,0.71,-2.94,-0.48,-0.05,-0.03,16.32,101362.52,3.45,3.45,3.68,0.0,vol 6,-0.036,-0.0175862068965511
356423.0,2.15,0.16,1.81,-11.89,0.93,-3.31,-0.71,0.01,0.0,16.32,101362.52,3.45,3.45,3.68,0.0,vol 6,-0.027,-0.0175862068965511
356433.0,2.12,0.27,1.81,-14.85,1.01,-3.39,-0.98,0.04,0.03,16.32,101362.52,3.45,3.45,3.68,0.0,vol 6,-0.017,-0.0175862068965511
356443.0,2.06,0.42,1.81,-19.97,0.91,-3.29,-1.14,0.06,0.05,16.33,101362.91,3.42,3.45,3.68,0.0,vol 6,-0.007,-0.0475862068965513
356453.0,2.01,0.54,1.81,-27.94,0.73,-3.19,-1.31,0.05,0.06,16.33,101362.91,3.42,3.44,3.68,0.0,vol 6,0.003,-0.0475862068965513
356464.0,1.96,0.63,1.81,-38.49,0.54,-3.02,-1.54,0.03,0.06,16.33,101362.91,3.42,3.44,3.68,0.0,vol 6,0.014,-0.0475862068965513
356474.0,1.92,0.67,1.81,-48.44,0.14,-3.0,-1.86,0.04,0.07,16.33,101362.58,3.45,3.44,3.68,0.0,vol 6,0.024,-0.0175862068965511
356484.0,1.89,0.68,1.81,-56.28,0.1,-3.19,-2.41,0.21,0.12,16.33,101362.58,3.45,3.44,3.68,0.0,vol 6,0.034,-0.0175862068965511
356494.0,1.86,0.7,1.81,-63.84,-0.06,-3.28,-2.97,0.39,0.16,16.33,101362.58,3.45,3.44,3.68,0.0,vol 6,0.044,-0.0175862068965511
356504.0,1.83,0.71,1.81,-71.92,0.11,-3.55,-3.54,0.51,0.19,16.33,101362.58,3.45,3.44,3.68,0.0,vol 6,0.054,-0.0175862068965511
356513.0,1.79,0.72,1.82,-77.77,0.03,-3.74,-3.98,0.5,0.18,16.33,101361.74,3.52,3.45,3.68,0.0,vol 6,0.063,0.0524137931034487
356523.0,1.72,0.74,1.82,-78.36,-0.93,-2.88,-4.25,0.36,0.14,16.33,101361.74,3.52,3.46,3.68,0.0,vol 6,0.073,0.0524137931034487
356534.0,1.65,0.76,1.82,-75.93,-1.9,-1.44,-4.58,0.22,0.22,16.33,101361.74,3.52,3.46,3.68,0.0,vol 6,0.084,0.0524137931034487
356544.0,1.68,0.68,1.82,-76.27,0.79,-4.89,-4.65,-0.15,0.16,16.33,101361.74,3.52,3.47,3.68,0.0,vol 6,0.094,0.0524137931034487
356554.0,1.61,0.71,1.82,-76.49,-0.23,-3.82,-4.27,-0.49,-0.04,16.32,101360.5,3.62,3.48,3.68,0.0,vol 6,0.104,0.1524137931034488
356564.0,1.5,0.69,1.82,-74.43,-2.32,-3.31,-4.33,-0.88,-0.29,16.32,101360.5,3.62,3.5,3.68,0.0,vol 6,0.114,0.1524137931034488
356574.0,1.47,0.71,1.81,-78.91,-2.2,-2.34,-4.34,-1.01,-0.4,16.32,101360.5,3.62,3.51,3.68,0.0,vol 6,0.124,0.1524137931034488
356585.0,1.44,0.72,1.81,-82.76,-1.95,-1.84,-4.11,-1.02,-0.42,16.32,101359.56,3.7,3.53,3.68,0.0,vol 6,0.135,0.2324137931034489
356594.0,1.41,0.73,1.8,-85.94,-1.67,-1.61,-3.96,-1.01,-0.47,16.33,101359.56,3.7,3.54,3.68,0.0,vol 6,0.144,0.2324137931034489
356604.0,1.38,0.72,1.8,-88.37,-1.41,-1.49,-3.89,-0.98,-0.52,16.33,101359.56,3.7,3.56,3.68,0.0,vol 6,0.154,0.2324137931034489
356614.0,1.35,0.72,1.79,-90.37,-1.21,-1.45,-3.87,-0.94,-0.58,16.33,101359.56,3.7,3.57,3.68,0.0,vol 6,0.164,0.2324137931034489
356624.0,1.32,0.72,1.79,-92.12,-1.02,-1.46,-3.89,-0.87,-0.63,16.33,101357.39,3.88,3.6,3.68,0.0,vol 6,0.174,0.4124137931034486
356634.0,1.29,0.71,1.78,-93.61,-0.82,-1.48,-3.95,-0.79,-0.68,16.33,101357.39,3.88,3.63,3.68,0.0,vol 6,0.184,0.4124137931034486
356644.0,1.25,0.71,1.77,-93.93,-0.6,-1.52,-4.03,-0.68,-0.73,16.33,101357.39,3.88,3.66,3.68,0.0,vol 6,0.194,0.4124137931034486
356654.0,1.22,0.7,1.77,-91.54,-0.32,-1.57,-4.15,-0.57,-0.76,16.33,101357.39,3.88,3.68,3.68,0.0,vol 6,0.204,0.4124137931034486
356664.0,1.19,0.69,1.76,-85.78,0.0,-1.63,-4.28,-0.43,-0.77,16.33,101354.88,4.09,3.72,3.72,0.0,vol 6,0.214,0.6224137931034486
356674.0,1.15,0.68,1.75,-78.84,0.33,-1.67,-4.43,-0.3,-0.76,16.33,101354.88,4.09,3.76,3.76,0.0,vol 6,0.224,0.6224137931034486
356684.0,1.12,0.68,1.74,-72.62,0.62,-1.68,-4.58,-0.17,-0.72,16.33,101354.88,4.09,3.79,3.79,0.0,vol 6,0.234,0.6224137931034486
356694.0,1.08,0.67,1.74,-67.15,0.87,-1.68,-4.74,-0.04,-0.64,16.33,101354.88,4.32,3.84,3.84,0.0,vol 6,0.244,0.852413793103449
356704.0,1.05,0.66,1.73,-62.53,1.07,-1.64,-4.9,0.08,-0.54,16.33,101352.03,4.32,3.89,3.89,0.0,vol 6,0.254,0.852413793103449
356715.0,1.0,0.66,1.73,-58.21,1.24,-1.55,-5.08,0.19,-0.41,16.33,101352.03,4.32,3.93,3.93,0.0,vol 6,0.265,0.852413793103449
356727.0,0.95,0.66,1.72,-54.67,1.36,-1.4,-5.26,0.29,-0.26,16.33,101352.03,4.32,3.97,3.97,0.0,vol 6,0.277,0.852413793103449
356738.0,0.9,0.66,1.72,-51.66,1.45,-1.24,-5.45,0.36,-0.09,16.33,101348.84,4.59,4.03,4.03,0.0,vol 6,0.288,1.1224137931034486
356750.0,0.84,0.66,1.72,-49.21,1.49,-1.06,-5.66,0.39,0.09,16.33,101348.84,4.59,4.09,4.09,0.0,vol 6,0.3,1.1224137931034486
356762.0,0.78,0.67,1.73,-47.28,1.5,-0.9,-5.87,0.4,0.25,16.33,101348.84,4.59,4.14,4.14,0.0,vol 6,0.312,1.1224137931034486
356773.0,0.72,0.67,1.73,-45.63,1.48,-0.71,-6.1,0.38,0.41,16.33,101345.16,4.9,4.22,4.22,0.0,vol 6,0.323,1.432413793103449
356784.0,0.65,0.68,1.74,-44.38,1.4,-0.51,-6.31,0.33,0.55,16.33,101345.16,4.9,4.28,4.28,0.0,vol 6,0.334,1.432413793103449
356795.0,0.57,0.69,1.75,-43.21,1.27,-0.3,-6.51,0.25,0.66,16.33,101345.16,4.9,4.35,4.35,0.0,vol 6,0.345,1.432413793103449
356806.0,0.5,0.7,1.75,-42.18,1.08,-0.13,-6.69,0.14,0.76,16.33,101345.16,5.2,4.43,4.43,0.0,vol 6,0.356,1.732413793103449
356815.0,0.42,0.72,1.76,-41.35,0.86,-0.0,-6.84,0.03,0.82,16.33,101341.47,5.2,4.51,4.51,0.0,vol 6,0.365,1.732413793103449
356825.0,0.34,0.73,1.77,-40.68,0.61,0.1,-6.97,-0.11,0.86,16.33,101341.47,5.2,4.58,4.58,0.0,vol 6,0.375,1.732413793103449
356835.0,0.26,0.74,1.78,-40.13,0.36,0.16,-7.09,-0.25,0.85,16.33,101341.47,5.2,4.64,4.64,0.0,vol 6,0.385,1.732413793103449
356845.0,0.18,0.74,1.79,-39.59,0.14,0.19,-7.18,-0.38,0.81,16.33,101336.95,5.58,4.73,4.73,0.0,vol 6,0.395,2.112413793103449
356855.0,0.09,0.74,1.79,-39.01,-0.08,0.17,-7.28,-0.52,0.74,16.33,101336.95,5.58,4.82,4.82,0.0,vol 6,0.405,2.112413793103449
356865.0,0.01,0.73,1.8,-38.36,-0.27,0.06,-7.38,-0.66,0.64,16.33,101336.95,5.58,4.89,4.89,0.0,vol 6,0.415,2.112413793103449
356875.0,-0.07,0.71,1.81,-37.61,-0.44,-0.1,-7.49,-0.79,0.5,16.33,101336.95,5.58,4.96,4.96,0.0,vol 6,0.425,2.112413793103449
356885.0,-0.15,0.69,1.81,-37.06,-0.55,-0.24,-7.57,-0.88,0.38,16.33,101332.27,5.97,5.06,5.06,0.0,vol 6,0.435,2.5024137931034485
356895.0,-0.23,0.67,1.81,-36.52,-0.62,-0.44,-7.67,-0.95,0.22,16.33,101332.27,5.97,5.15,5.15,0.0,vol 6,0.445,2.5024137931034485
356905.0,-0.3,0.65,1.81,-36.13,-0.61,-0.67,-7.77,-1.0,0.05,16.33,101332.27,5.97,5.24,5.24,0.0,vol 6,0.455,2.5024137931034485
356914.0,-0.37,0.63,1.81,-35.91,-0.56,-0.97,-7.89,-1.02,-0.12,16.33,101332.27,5.97,5.31,5.31,0.0,vol 6,0.464,2.5024137931034485
356925.0,-0.44,0.61,1.81,-35.71,-0.48,-1.21,-8.02,-1.01,-0.28,16.33,101326.91,6.42,5.42,5.42,0.0,vol 6,0.475,2.9524137931034486
356935.0,-0.51,0.59,1.8,-35.51,-0.33,-1.37,-8.15,-0.96,-0.43,16.33,101326.91,6.42,5.52,5.52,0.0,vol 6,0.485,2.9524137931034486
356945.0,-0.58,0.58,1.8,-35.36,-0.12,-1.49,-8.3,-0.88,-0.56,16.33,101326.91,6.42,5.61,5.61,0.0,vol 6,0.495,2.9524137931034486
356955.0,-0.64,0.56,1.79,-35.26,0.09,-1.57,-8.45,-0.79,-0.66,16.33,101320.88,6.92,5.74,5.74,0.0,vol 6,0.505,3.4524137931034486
356966.0,-0.72,0.56,1.78,-35.13,0.32,-1.52,-8.64,-0.67,-0.74,16.33,101320.88,6.92,5.86,5.86,0.0,vol 6,0.516,3.4524137931034486
356976.0,-0.8,0.56,1.77,-35.25,0.56,-1.39,-8.81,-0.57,-0.78,16.33,101320.88,6.92,5.96,5.96,0.0,vol 6,0.526,3.4524137931034486
356986.0,-0.87,0.55,1.77,-35.19,0.79,-1.25,-8.98,-0.48,-0.79,16.33,101320.88,6.92,6.06,6.06,0.0,vol 6,0.536,3.4524137931034486
356996.0,-0.93,0.55,1.76,-35.31,1.02,-1.12,-9.15,-0.4,-0.78,16.33,101314.5,7.45,6.2,6.2,0.0,vol 6,0.546,3.982413793103449
357006.0,-1.01,0.54,1.75,-35.18,1.22,-0.98,-9.33,-0.34,-0.74,16.33,101314.5,7.45,6.32,6.32,0.0,vol 6,0.556,3.982413793103449
357015.0,-1.09,0.53,1.75,-35.02,1.41,-0.86,-9.51,-0.3,-0.69,16.33,101314.5,7.45,6.44,6.44,0.0,vol 6,0.565,3.982413793103449
357025.0,-1.17,0.52,1.74,-34.82,1.59,-0.72,-9.69,-0.27,-0.62,16.33,101314.5,7.45,6.54,6.54,0.0,vol 6,0.575,3.982413793103449
357035.0,-1.25,0.51,1.73,-34.79,1.75,-0.53,-9.87,-0.27,-0.53,16.33,101307.47,8.03,6.69,6.69,0.0,vol 6,0.585,4.562413793103448
357045.0,-1.35,0.51,1.73,-34.7,1.79,-0.32,-10.04,-0.29,-0.44,16.33,101307.47,8.03,6.82,6.82,0.0,vol 6,0.595,4.562413793103448
357055.0,-1.45,0.51,1.73,-34.67,1.75,-0.11,-10.19,-0.34,-0.35,16.33,101307.47,8.03,6.94,6.94,0.0,vol 6,0.605,4.562413793103448
357065.0,-1.55,0.51,1.72,-34.24,1.66,0.06,-10.34,-0.41,-0.28,16.33,101307.47,8.63,7.11,7.11,0.0,vol 6,0.615,5.1624137931034495
357075.0,-1.66,0.51,1.72,-33.81,1.51,0.23,-10.47,-0.51,-0.22,16.33,101300.27,8.63,7.26,7.26,0.0,vol 6,0.625,5.1624137931034495
357085.0,-1.78,0.52,1.72,-33.48,1.29,0.33,-10.59,-0.61,-0.19,16.33,101300.27,8.63,7.4,7.4,0.0,vol 6,0.635,5.1624137931034495
357096.0,-1.91,0.53,1.72,-33.02,1.02,0.38,-10.71,-0.74,-0.19,16.33,101300.27,8.63,7.52,7.52,0.0,vol 6,0.646,5.1624137931034495
357106.0,-2.02,0.53,1.71,-32.61,0.8,0.36,-10.8,-0.85,-0.23,16.33,101292.23,9.3,7.7,7.7,0.0,vol 6,0.656,5.832413793103449
357116.0,-2.14,0.54,1.71,-32.26,0.59,0.26,-10.89,-0.96,-0.29,16.33,101292.23,9.3,7.86,7.86,0.0,vol 6,0.666,5.832413793103449
357126.0,-2.26,0.54,1.71,-31.96,0.45,0.08,-10.98,-1.05,-0.38,16.33,101292.23,9.3,8.01,8.01,0.0,vol 6,0.676,5.832413793103449
357136.0,-2.37,0.54,1.7,-31.72,0.34,-0.13,-11.06,-1.11,-0.5,16.33,101292.23,9.3,8.14,8.14,0.0,vol 6,0.686,5.832413793103449
357146.0,-2.48,0.52,1.7,-31.51,0.28,-0.4,-11.15,-1.14,-0.62,16.33,101284.19,9.97,8.32,8.32,0.0,vol 6,0.696,6.502413793103449
357156.0,-2.59,0.49,1.69,-31.24,0.31,-0.68,-11.25,-1.14,-0.74,16.33,101284.19,9.97,8.48,8.48,0.0,vol 6,0.706,6.502413793103449
357167.0,-2.68,0.45,1.68,-30.93,0.52,-0.99,-11.35,-1.1,-0.88,16.33,101284.19,9.97,8.63,8.63,0.0,vol 6,0.717,6.502413793103449
357177.0,-2.77,0.42,1.67,-30.63,0.8,-1.2,-11.47,-1.02,-0.97,16.33,101275.31,10.71,8.84,8.84,0.0,vol 6,0.727,7.24241379310345
357187.0,-2.86,0.38,1.66,-30.36,1.12,-1.37,-11.6,-0.93,-1.03,16.33,101275.31,10.71,9.03,9.03,0.0,vol 6,0.737,7.24241379310345
357197.0,-2.94,0.35,1.65,-30.13,1.46,-1.45,-11.74,-0.82,-1.05,16.33,101275.31,10.71,9.2,9.2,0.0,vol 6,0.747,7.24241379310345
357206.0,-3.03,0.32,1.64,-30.14,1.86,-1.45,-11.89,-0.71,-1.03,16.33,101275.31,10.71,9.35,9.35,0.0,vol 6,0.756,7.24241379310345
357216.0,-3.11,0.3,1.63,-30.1,2.26,-1.34,-12.05,-0.61,-0.96,16.33,101266.43,11.45,9.56,9.56,0.0,vol 6,0.766,7.982413793103448
357226.0,-3.21,0.28,1.62,-30.02,2.54,-1.18,-12.2,-0.54,-0.87,16.33,101266.43,11.45,9.75,9.75,0.0,vol 6,0.776,7.982413793103448
357236.0,-3.31,0.26,1.61,-29.87,2.76,-0.96,-12.37,-0.5,-0.74,16.33,101266.43,11.45,9.92,9.92,0.0,vol 6,0.786,7.982413793103448
357246.0,-3.42,0.25,1.61,-29.82,2.86,-0.67,-12.54,-0.5,-0.59,16.33,101266.43,11.45,10.07,10.07,0.0,vol 6,0.796,7.982413793103448
357256.0,-3.54,0.25,1.6,-29.76,2.86,-0.45,-12.69,-0.54,-0.44,16.33,101256.89,12.25,10.29,10.29,0.0,vol 6,0.806,8.782413793103448
357266.0,-3.67,0.25,1.6,-29.68,2.77,-0.29,-12.83,-0.61,-0.3,16.33,101256.89,12.25,10.48,10.48,0.0,vol 6,0.816,8.782413793103448
357276.0,-3.81,0.26,1.6,-29.59,2.58,-0.18,-12.96,-0.72,-0.19,16.33,101256.89,12.25,10.66,10.66,0.0,vol 6,0.826,8.782413793103448
357286.0,-3.96,0.27,1.6,-29.51,2.32,-0.14,-13.09,-0.86,-0.11,16.33,101256.89,13.05,10.9,10.9,0.0,vol 6,0.836,9.582413793103449
357296.0,-4.1,0.28,1.6,-29.44,2.11,-0.17,-13.19,-1.0,-0.08,16.33,101247.17,13.05,11.12,11.12,0.0,vol 6,0.846,9.582413793103449
357306.0,-4.24,0.28,1.6,-29.4,1.94,-0.32,-13.27,-1.13,-0.09,16.33,101247.17,13.05,11.31,11.31,0.0,vol 6,0.856,9.582413793103449
357317.0,-4.38,0.28,1.59,-29.29,1.78,-0.53,-13.36,-1.24,-0.12,16.33,101247.17,13.05,11.48,11.48,0.0,vol 6,0.867,9.582413793103449
357327.0,-4.52,0.27,1.59,-29.15,1.63,-0.78,-13.45,-1.32,-0.18,16.33,101236.78,13.92,11.73,11.73,0.0,vol 6,0.877,10.45241379310345
357337.0,-4.65,0.25,1.59,-29.1,1.59,-1.04,-13.55,-1.37,-0.26,16.33,101236.78,13.92,11.95,11.95,0.0,vol 6,0.887,10.45241379310345
357347.0,-4.78,0.22,1.59,-29.04,1.64,-1.32,-13.65,-1.37,-0.34,16.33,101236.78,13.92,12.14,12.14,0.0,vol 6,0.897,10.45241379310345
357357.0,-4.9,0.19,1.58,-28.98,1.77,-1.51,-13.76,-1.35,-0.41,16.33,101236.78,13.92,12.32,12.32,0.0,vol 6,0.907,10.45241379310345
357366.0,-5.02,0.16,1.58,-28.84,1.98,-1.56,-13.89,-1.3,-0.48,16.33,101226.06,14.81,12.57,12.57,0.0,vol 6,0.916,11.34241379310345
357376.0,-5.13,0.12,1.57,-28.75,2.26,-1.67,-14.03,-1.25,-0.52,16.33,101226.06,14.81,12.8,12.8,0.0,vol 6,0.926,11.34241379310345
357387.0,-5.25,0.09,1.57,-28.79,2.5,-1.73,-14.17,-1.18,-0.52,16.33,101226.06,14.81,13.0,13.0,0.0,vol 6,0.937,11.34241379310345
357397.0,-5.37,0.07,1.56,-28.79,2.72,-1.74,-14.32,-1.12,-0.51,16.33,101226.06,14.81,13.18,13.18,0.0,vol 6,0.947,11.34241379310345
357406.0,-5.49,0.05,1.56,-28.75,2.86,-1.61,-14.48,-1.07,-0.47,16.33,101215.17,15.72,13.43,13.43,0.0,vol 6,0.956,12.25241379310345
357416.0,-5.63,0.05,1.55,-28.63,2.89,-1.4,-14.62,-1.04,-0.41,16.33,101215.17,15.72,13.66,13.66,0.0,vol 6,0.966,12.25241379310345
357426.0,-5.77,0.04,1.55,-28.46,2.86,-1.3,-14.74,-1.04,-0.35,16.33,101215.17,15.72,13.87,13.87,0.0,vol 6,0.976,12.25241379310345
357436.0,-5.91,0.02,1.55,-28.28,2.95,-1.28,-14.86,-1.05,-0.3,16.33,101215.17,16.66,14.15,14.15,0.0,vol 6,0.986,13.192413793103448
357446.0,-6.04,0.01,1.55,-28.14,3.02,-1.27,-14.97,-1.08,-0.24,16.33,101203.95,16.66,14.4,14.4,0.0,vol 6,0.996,13.192413793103448
357456.0,-6.19,-0.0,1.54,-28.01,3.01,-1.26,-15.08,-1.12,-0.19,16.33,101203.95,16.66,14.62,14.62,0.0,vol 6,1.006,13.192413793103448
357467.0,-6.34,-0.01,1.54,-27.95,2.9,-1.23,-15.19,-1.17,-0.15,16.33,101203.95,16.66,14.83,14.83,0.0,vol 6,1.017,13.192413793103448
357477.0,-6.52,-0.01,1.54,-27.83,2.74,-1.3,-15.29,-1.24,-0.12,16.33,101191.9,17.66,15.11,15.11,0.0,vol 6,1.027,14.192413793103448
357487.0,-6.67,-0.02,1.54,-27.66,2.6,-1.43,-15.38,-1.29,-0.12,16.33,101191.9,17.66,15.36,15.36,0.0,vol 6,1.037,14.192413793103448
357497.0,-6.84,-0.03,1.54,-27.48,2.43,-1.56,-15.46,-1.33,-0.14,16.33,101191.9,17.66,15.59,15.59,0.0,vol 6,1.047,14.192413793103448
357507.0,-7.0,-0.04,1.54,-27.28,2.25,-1.71,-15.55,-1.36,-0.18,16.33,101191.9,17.66,15.8,15.8,0.0,vol 6,1.057,14.192413793103448
357518.0,-7.16,-0.06,1.53,-27.06,2.15,-1.91,-15.63,-1.37,-0.23,16.33,101179.5,18.69,16.09,16.09,0.0,vol 6,1.068,15.222413793103447
357527.0,-7.31,-0.08,1.53,-26.89,2.12,-2.11,-15.72,-1.36,-0.29,16.33,101179.5,18.69,16.35,16.35,0.0,vol 6,1.077,15.222413793103447
357537.0,-7.45,-0.11,1.53,-26.73,2.18,-2.33,-15.81,-1.32,-0.34,16.33,101179.5,18.69,16.58,16.58,0.0,vol 6,1.087,15.222413793103447
357547.0,-7.59,-0.14,1.52,-26.6,2.34,-2.49,-15.91,-1.26,-0.39,16.33,101179.5,19.75,16.9,16.9,0.0,vol 6,1.097,16.282413793103448
357557.0,-7.73,-0.17,1.52,-26.47,2.51,-2.55,-16.02,-1.18,-0.42,16.33,101166.77,19.75,17.19,17.19,0.0,vol 6,1.107,16.282413793103448
357567.0,-7.87,-0.19,1.52,-26.32,2.66,-2.58,-16.15,-1.1,-0.42,16.33,101166.77,19.75,17.44,17.44,0.0,vol 6,1.117,16.282413793103448
357577.0,-8.01,-0.22,1.51,-26.17,2.8,-2.59,-16.29,-1.03,-0.4,16.33,101166.77,19.75,17.67,17.67,0.0,vol 6,1.127,16.282413793103448
357587.0,-8.17,-0.22,1.51,-26.11,2.81,-2.57,-16.44,-0.96,-0.36,16.33,101153.7,20.84,17.99,17.99,0.0,vol 6,1.137,17.372413793103448
357597.0,-8.34,-0.23,1.5,-26.06,2.74,-2.51,-16.58,-0.91,-0.31,16.33,101153.7,20.84,18.28,18.28,0.0,vol 6,1.147,17.372413793103448
357607.0,-8.51,-0.21,1.5,-26.05,2.61,-2.27,-16.72,-0.87,-0.27,16.33,101153.7,20.84,18.53,18.53,0.0,vol 6,1.157,17.372413793103448
357617.0,-8.68,-0.19,1.5,-26.13,2.5,-1.93,-16.82,-0.85,-0.23,16.33,101153.7,20.84,18.76,18.76,0.0,vol 6,1.167,17.372413793103448
357627.0,-8.85,-0.19,1.5,-26.14,2.39,-1.75,-16.89,-0.87,-0.21,16.33,101139.64,22.02,19.09,19.09,0.0,vol 6,1.177,18.552413793103447
357637.0,-9.02,-0.18,1.5,-26.21,2.29,-1.64,-16.95,-0.91,-0.2,16.33,101139.64,22.02,19.38,19.38,0.0,vol 6,1.187,18.552413793103447
357647.0,-9.2,-0.18,1.49,-26.2,2.16,-1.59,-17.0,-0.96,-0.2,16.33,101139.64,22.02,19.65,19.65,0.0,vol 6,1.197,18.552413793103447
357657.0,-9.37,-0.18,1.49,-26.22,2.0,-1.59,-17.04,-1.01,-0.22,16.33,101139.64,22.02,19.88,19.88,0.0,vol 6,1.207,18.552413793103447
357667.0,-9.55,-0.18,1.49,-26.25,1.84,-1.58,-17.07,-1.05,-0.26,16.33,101126.23,23.13,20.21,20.21,0.0,vol 6,1.217,19.662413793103447
357677.0,-9.72,-0.19,1.49,-26.24,1.77,-1.68,-17.09,-1.09,-0.31,16.33,101126.23,23.13,20.5,20.5,0.0,vol 6,1.227,19.662413793103447
357687.0,-9.88,-0.21,1.48,-26.21,1.81,-1.83,-17.12,-1.11,-0.38,16.33,101126.23,23.13,20.76,20.76,0.0,vol 6,1.237,19.662413793103447
357697.0,-10.03,-0.24,1.48,-26.13,1.98,-2.01,-17.17,-1.11,-0.44,16.33,101112.34,24.29,21.12,21.12,0.0,vol 6,1.247,20.822413793103447
357707.0,-10.18,-0.27,1.47,-26.04,2.21,-2.11,-17.22,-1.09,-0.47,16.33,101112.34,24.29,21.43,21.43,0.0,vol 6,1.257,20.822413793103447
357717.0,-10.33,-0.3,1.47,-26.09,2.41,-2.15,-17.28,-1.07,-0.48,16.33,101112.34,24.29,21.72,21.72,0.0,vol 6,1.267,20.822413793103447
357727.0,-10.48,-0.32,1.46,-26.17,2.6,-2.17,-17.35,-1.04,-0.47,16.33,101112.34,24.29,21.98,21.98,0.0,vol 6,1.277,20.822413793103447
357737.0,-10.63,-0.34,1.46,-26.23,2.78,-2.1,-17.44,-1.03,-0.45,16.33,101097.43,25.54,22.33,22.33,0.0,vol 6,1.287,22.072413793103447
357747.0,-10.78,-0.36,1.45,-26.23,2.96,-2.05,-17.44,-1.02,-0.4,16.33,101097.43,25.54,22.65,22.65,0.0,vol 6,1.297,22.072413793103447
357757.0,-10.94,-0.37,1.45,-26.29,3.04,-1.96,-17.44,-1.03,-0.35,16.33,101097.43,25.54,22.94,22.94,0.0,vol 6,1.307,22.072413793103447
357767.0,-11.11,-0.38,1.45,-26.3,3.06,-1.84,-17.44,-1.06,-0.3,16.33,101097.43,25.54,23.2,23.2,0.0,vol 6,1.317,22.072413793103447
357777.0,-11.26,-0.38,1.45,-26.25,3.03,-1.83,-17.44,-1.11,-0.28,16.33,101082.52,26.78,23.56,23.56,0.0,vol 6,1.327,23.31241379310345
357787.0,-11.45,-0.39,1.44,-26.19,2.97,-1.86,-17.44,-1.16,-0.28,16.33,101082.52,26.78,23.88,23.88,0.0,vol 6,1.337,23.31241379310345
357797.0,-11.62,-0.4,1.44,-26.18,2.95,-1.85,-17.44,-1.2,-0.31,16.33,101082.52,26.78,24.17,24.17,0.0,vol 6,1.347,23.31241379310345
357807.0,-11.78,-0.42,1.44,-26.11,3.0,-1.86,-17.44,-1.24,-0.36,16.33,101082.52,28.06,24.56,24.56,0.0,vol 6,1.357,24.592413793103447
357817.0,-11.92,-0.44,1.43,-26.08,3.13,-1.88,-17.44,-1.28,-0.41,16.33,101067.12,28.06,24.91,24.91,0.0,vol 6,1.367,24.592413793103447
357827.0,-12.08,-0.46,1.43,-26.05,3.27,-1.82,-17.44,-1.31,-0.45,16.33,101067.12,28.06,25.23,25.23,0.0,vol 6,1.377,24.592413793103447
357837.0,-12.23,-0.48,1.42,-25.96,3.34,-1.79,-17.44,-1.33,-0.48,16.33,101067.12,28.06,25.51,25.51,0.0,vol 6,1.387,24.592413793103447
357847.0,-12.42,-0.5,1.42,-25.82,3.36,-1.84,-17.44,-1.36,-0.51,16.33,101051.88,29.34,25.89,25.89,0.0,vol 6,1.397,25.872413793103448
357857.0,-12.56,-0.52,1.41,-25.74,3.45,-1.91,-17.44,-1.38,-0.55,16.33,101051.88,29.34,26.24,26.24,0.0,vol 6,1.407,25.872413793103448
357867.0,-12.72,-0.55,1.41,-25.68,3.55,-1.94,-17.44,-1.39,-0.58,16.33,101051.88,29.34,26.55,26.55,0.0,vol 6,1.417,25.872413793103448
357877.0,-12.87,-0.57,1.4,-25.6,3.65,-1.95,-17.44,-1.39,-0.6,16.33,101051.88,29.34,26.82,26.82,0.0,vol 6,1.427,25.872413793103448
357887.0,-13.03,-0.59,1.39,-25.52,3.75,-2.0,-17.44,-1.4,-0.6,16.33,101036.47,30.62,27.2,27.2,0.0,vol 6,1.437,27.15241379310345
357897.0,-13.2,-0.62,1.39,-25.28,3.84,-2.04,-17.44,-1.4,-0.6,16.33,101036.47,30.62,27.55,27.55,0.0,vol 6,1.447,27.15241379310345
357907.0,-13.36,-0.64,1.38,-25.11,3.91,-2.1,-17.44,-1.41,-0.6,16.33,101036.47,30.62,27.85,27.85,0.0,vol 6,1.457,27.15241379310345
357917.0,-13.51,-0.67,1.38,-24.96,3.97,-2.22,-17.44,-1.41,-0.59,16.33,101036.47,30.62,28.13,28.13,0.0,vol 6,1.467,27.15241379310345
357927.0,-13.66,-0.7,1.37,-24.77,4.08,-2.3,-17.44,-1.4,-0.58,16.33,101020.72,31.93,28.51,28.51,0.0,vol 6,1.477,28.462413793103448
357936.0,-13.82,-0.72,1.37,-24.61,4.2,-2.34,-17.44,-1.39,-0.56,16.33,101020.72,31.93,28.85,28.85,0.0,vol 6,1.486,28.462413793103448
357946.0,-13.97,-0.75,1.36,-24.62,4.3,-2.37,-17.44,-1.39,-0.52,16.33,101020.72,31.93,29.16,29.16,0.0,vol 6,1.496,28.462413793103448
357956.0,-14.14,-0.77,1.36,-24.82,4.39,-2.48,-17.44,-1.4,-0.47,16.33,101005.21,33.23,29.57,29.57,0.0,vol 6,1.506,29.762413793103445
357967.0,-14.3,-0.79,1.35,-24.85,4.42,-2.62,-17.44,-1.42,-0.4,16.33,101005.21,33.23,29.93,29.93,0.0,vol 6,1.517,29.762413793103445
357977.0,-14.5,-0.8,1.35,-24.89,4.32,-2.73,-17.44,-1.44,-0.33,16.33,101005.21,33.23,30.26,30.26,0.0,vol 6,1.527,29.762413793103445
357987.0,-14.68,-0.81,1.35,-24.94,4.19,-2.87,-17.44,-1.47,-0.27,16.33,101005.21,33.23,30.56,30.56,0.0,vol 6,1.537,29.762413793103445
357998.0,-14.85,-0.83,1.34,-24.99,4.11,-3.06,-17.44,-1.49,-0.23,16.33,100989.3,34.56,30.96,30.96,0.0,vol 6,1.548,31.09241379310345
358008.0,-15.02,-0.85,1.34,-25.06,4.08,-3.26,-17.44,-1.5,-0.19,16.33,100989.3,34.56,31.32,31.32,0.0,vol 6,1.558,31.09241379310345
358018.0,-15.21,-0.88,1.34,-25.09,4.05,-3.51,-17.44,-1.5,-0.16,16.33,100989.3,34.56,31.64,31.64,0.0,vol 6,1.568,31.09241379310345
358028.0,-15.37,-0.91,1.34,-25.05,4.1,-3.74,-17.44,-1.48,-0.14,16.33,100989.3,34.56,31.93,31.93,0.0,vol 6,1.578,31.09241379310345
358038.0,-15.54,-0.94,1.34,-25.0,4.13,-3.93,-17.44,-1.46,-0.11,16.33,100972.48,35.96,32.34,32.34,0.0,vol 6,1.588,32.49241379310345
358049.0,-15.7,-0.96,1.34,-24.97,4.16,-4.08,-17.44,-1.43,-0.07,16.33,100972.48,35.96,32.7,32.7,0.0,vol 6,1.599,32.49241379310345
358059.0,-15.89,-0.99,1.34,-24.97,4.13,-4.28,-17.44,-1.4,-0.03,16.33,100972.48,35.96,33.03,33.03,0.0,vol 6,1.609,32.49241379310345
358069.0,-16.07,-1.01,1.34,-24.9,4.02,-4.41,-17.44,-1.37,0.01,16.33,100956.47,37.3,33.45,33.45,0.0,vol 6,1.619,33.83241379310345
358079.0,-16.24,-1.01,1.34,-24.9,3.92,-4.43,-17.44,-1.33,0.05,16.33,100956.47,37.3,33.84,33.84,0.0,vol 6,1.629,33.83241379310345
358089.0,-16.42,-1.01,1.34,-24.87,3.85,-4.3,-17.44,-1.31,0.08,16.33,100956.47,37.3,34.18,34.18,0.0,vol 6,1.639,33.83241379310345
358099.0,-16.59,-1.01,1.34,-24.85,3.73,-4.19,-17.44,-1.3,0.11,16.33,100956.47,37.3,34.49,34.49,0.0,vol 6,1.649,33.83241379310345
358109.0,-16.76,-1.02,1.34,-24.76,3.67,-4.08,-17.44,-1.32,0.13,16.33,100939.16,38.74,34.92,34.92,0.0,vol 6,1.659,35.27241379310345
358119.0,-16.94,-1.02,1.34,-24.7,3.6,-3.97,-17.44,-1.33,0.14,16.33,100939.16,38.74,35.3,35.3,0.0,vol 6,1.669,35.27241379310345
358129.0,-17.11,-1.02,1.34,-24.66,3.53,-3.84,-17.44,-1.36,0.13,16.33,100939.16,38.74,35.65,35.65,0.0,vol 6,1.679,35.27241379310345
358139.0,-17.27,-1.04,1.34,-24.16,3.52,-3.78,-17.44,-1.4,0.11,16.33,100939.16,38.74,35.96,35.96,0.0,vol 6,1.689,35.27241379310345
358149.0,-17.43,-1.09,1.34,-22.26,3.39,-3.85,-17.44,-1.45,0.08,16.33,100922.08,40.17,36.38,36.38,0.0,vol 6,1.699,36.70241379310345
358159.0,-17.56,-1.18,1.34,-19.41,3.23,-4.05,-17.44,-1.48,0.03,16.33,100922.08,40.17,36.76,36.76,0.0,vol 6,1.709,36.70241379310345
358169.0,-17.66,-1.34,1.34,-15.99,3.24,-4.3,-17.44,-1.48,-0.03,16.33,100922.08,40.17,37.1,37.1,0.0,vol 6,1.719,36.70241379310345
358179.0,-17.71,-1.57,1.34,-12.36,3.18,-4.47,-17.44,-1.44,-0.07,16.33,100906.16,41.5,37.54,37.54,0.0,vol 6,1.729,38.03241379310345
358189.0,-17.71,-1.92,1.34,-8.79,3.18,-4.61,-17.44,-1.4,-0.1,16.33,100906.16,41.5,37.93,37.93,0.0,vol 6,1.739,38.03241379310345
358199.0,-17.63,-2.48,1.34,-5.4,3.21,-4.56,-17.44,-1.35,-0.13,16.33,100906.16,41.5,38.29,38.29,0.0,vol 6,1.749,38.03241379310345
358209.0,-17.48,-3.34,1.34,-2.33,3.21,-4.52,-17.44,-1.31,-0.13,16.33,100906.16,41.5,38.61,38.61,0.0,vol 6,1.759,38.03241379310345
358219.0,-17.52,-4.2,1.34,-0.16,3.25,-4.54,-17.44,-1.28,-0.13,16.33,100890.75,42.79,39.03,39.03,0.0,vol 6,1.769,39.32241379310345
358229.0,-17.73,-4.88,1.34,1.5,3.25,-4.5,-17.44,-1.25,-0.11,16.33,100890.75,42.79,39.4,39.4,0.0,vol 6,1.779,39.32241379310345
358239.0,-18.03,-5.34,1.34,2.74,3.21,-4.53,-17.44,-1.23,-0.1,16.33,100890.75,42.79,39.74,39.74,0.0,vol 6,1.789,39.32241379310345
358249.0,-18.28,-5.63,1.34,3.68,3.24,-4.56,-17.44,-1.2,-0.07,16.33,100890.75,42.79,40.05,40.05,0.0,vol 6,1.799,39.32241379310345
358259.0,-18.49,-5.82,1.34,4.38,3.37,-4.54,-17.44,-1.17,-0.04,16.33,100875.02,44.1,40.45,40.45,0.0,vol 6,1.809,40.63241379310345
358270.0,-18.67,-5.93,1.34,4.91,3.57,-4.57,-17.44,-1.14,0.02,16.33,100875.02,44.1,40.82,40.82,0.0,vol 6,1.82,40.63241379310345
358280.0,-18.87,-6.02,1.34,5.26,3.58,-4.6,-17.44,-1.13,0.09,16.33,100875.02,44.1,41.15,41.15,0.0,vol 6,1.83,40.63241379310345
358290.0,-19.11,-6.11,1.34,5.52,3.4,-4.58,-17.44,-1.13,0.16,16.33,100859.1,45.43,41.57,41.57,0.0,vol 6,1.84,41.96241379310345
358300.0,-19.39,-6.19,1.34,5.73,3.08,-4.6,-17.44,-1.13,0.22,16.33,100859.1,45.43,41.96,41.96,0.0,vol 6,1.85,41.96241379310345
358311.0,-19.66,-6.26,1.34,5.89,2.73,-4.66,-17.44,-1.14,0.25,16.33,100859.1,45.43,42.31,42.31,0.0,vol 6,1.861,41.96241379310345
358321.0,-19.93,-6.31,1.35,6.01,2.42,-4.79,-17.44,-1.14,0.25,16.33,100859.1,45.43,42.62,42.62,0.0,vol 6,1.871,41.96241379310345
358331.0,-20.18,-6.3,1.35,6.12,2.18,-5.08,-17.44,-1.12,0.24,16.33,100843.7,46.72,43.03,43.03,0.0,vol 6,1.881,43.25241379310345
358341.0,-20.4,-6.29,1.35,6.18,2.06,-5.33,-17.44,-1.08,0.22,16.33,100843.7,46.72,43.4,43.4,0.0,vol 6,1.891,43.25241379310345
358351.0,-20.56,-6.28,1.35,6.19,2.1,-5.44,-17.44,-1.01,0.2,16.33,100843.7,46.72,43.73,43.73,0.0,vol 6,1.901,43.25241379310345
358360.0,-20.69,-6.27,1.35,6.2,2.26,-5.48,-17.44,-0.93,0.21,16.33,100843.7,46.72,44.03,44.03,0.0,vol 6,1.91,43.25241379310345
358370.0,-20.83,-6.27,1.36,6.18,2.34,-5.43,-17.44,-0.86,0.24,16.32,100827.05,48.11,44.44,44.44,0.0,vol 6,1.92,44.64241379310345
358381.0,-20.99,-6.3,1.36,6.15,2.34,-5.3,-17.44,-0.8,0.29,16.32,100827.05,48.11,44.8,44.8,0.0,vol 6,1.931,44.64241379310345
358391.0,-21.18,-6.34,1.36,6.11,2.23,-5.12,-17.44,-0.76,0.34,16.32,100827.05,48.11,45.13,45.13,0.0,vol 6,1.941,44.64241379310345
358402.0,-21.42,-6.4,1.37,6.06,1.98,-4.93,-17.44,-0.75,0.4,16.32,100810.97,49.45,45.57,45.57,0.0,vol 6,1.952,45.982413793103454
358412.0,-21.69,-6.46,1.37,6.05,1.63,-4.8,-17.44,-0.75,0.43,16.32,100810.97,49.45,45.95,45.95,0.0,vol 6,1.962,45.982413793103454
358422.0,-21.94,-6.5,1.38,6.02,1.33,-4.72,-17.44,-0.77,0.42,16.32,100810.97,49.45,46.3,46.3,0.0,vol 6,1.972,45.982413793103454
358432.0,-22.17,-6.52,1.38,6.0,1.11,-4.68,-17.44,-0.78,0.39,16.32,100810.97,49.45,46.62,46.62,0.0,vol 6,1.982,45.982413793103454
358443.0,-22.39,-6.54,1.38,5.98,0.95,-4.66,-17.44,-0.78,0.35,16.32,100794.05,50.87,47.04,47.04,0.0,vol 6,1.993,47.40241379310345
358453.0,-22.61,-6.55,1.39,5.97,0.82,-4.67,-17.44,-0.78,0.28,16.32,100794.05,50.87,47.43,47.43,0.0,vol 6,2.003,47.40241379310345
358464.0,-22.81,-6.55,1.39,5.95,0.72,-4.69,-17.44,-0.75,0.22,16.32,100794.05,50.87,47.77,47.77,0.0,vol 6,2.014,47.40241379310345
358474.0,-22.98,-6.56,1.39,5.91,0.69,-4.67,-17.44,-0.72,0.16,16.32,100794.05,52.31,48.22,48.22,0.0,vol 6,2.024,48.842413793103454
358485.0,-23.15,-6.56,1.39,5.85,0.73,-4.61,-17.44,-0.67,0.11,16.32,100776.8,52.31,48.63,48.63,0.0,vol 6,2.035,48.842413793103454
358495.0,-23.31,-6.59,1.39,5.83,0.76,-4.51,-17.44,-0.62,0.07,16.32,100776.8,52.31,49.0,49.0,0.0,vol 6,2.045,48.842413793103454
358505.0,-23.49,-6.62,1.39,5.79,0.77,-4.39,-17.44,-0.58,0.05,16.32,100776.8,52.31,49.33,49.33,0.0,vol 6,2.055,48.842413793103454
358515.0,-23.66,-6.65,1.39,5.75,0.73,-4.24,-17.44,-0.54,0.03,16.32,100759.05,53.79,49.78,49.78,0.0,vol 6,2.065,50.32241379310345
358525.0,-23.84,-6.69,1.39,5.71,0.69,-4.1,-17.44,-0.51,0.02,16.32,100759.05,53.79,50.18,50.18,0.0,vol 6,2.075,50.32241379310345
358535.0,-24.02,-6.73,1.39,5.68,0.63,-3.96,-17.44,-0.49,0.01,16.32,100759.05,53.79,50.54,50.54,0.0,vol 6,2.085,50.32241379310345
358545.0,-24.2,-6.75,1.39,5.64,0.57,-3.86,-17.44,-0.48,-0.01,16.32,100759.05,53.79,50.87,50.87,0.0,vol 6,2.095,50.32241379310345
358555.0,-24.38,-6.78,1.39,5.6,0.51,-3.76,-17.44,-0.48,-0.02,16.32,100741.08,55.3,51.31,51.31,0.0,vol 6,2.105,51.83241379310345
358565.0,-24.55,-6.8,1.39,5.58,0.47,-3.7,-17.44,-0.47,-0.04,16.32,100741.08,55.3,51.71,51.71,0.0,vol 6,2.115,51.83241379310345
358575.0,-24.72,-6.81,1.39,5.56,0.47,-3.67,-17.44,-0.46,-0.06,16.32,100741.08,55.3,52.07,52.07,0.0,vol 6,2.125,51.83241379310345
358584.0,-24.9,-6.82,1.39,5.53,0.44,-3.62,-17.44,-0.45,-0.07,16.32,100741.08,56.78,52.54,52.54,0.0,vol 6,2.134,53.31241379310345
358594.0,-25.07,-6.82,1.39,5.51,0.44,-3.61,-17.44,-0.44,-0.08,16.32,100723.32,56.78,52.96,52.96,0.0,vol 6,2.144,53.31241379310345
358605.0,-25.24,-6.85,1.39,5.51,0.43,-3.52,-17.44,-0.43,-0.1,16.32,100723.32,56.78,53.34,53.34,0.0,vol 6,2.155,53.31241379310345
358615.0,-25.43,-6.87,1.39,5.5,0.4,-3.49,-17.44,-0.42,-0.11,16.32,100723.32,56.78,53.69,53.69,0.0,vol 6,2.165,53.31241379310345
358625.0,-25.6,-6.86,1.39,5.48,0.38,-3.51,-17.44,-0.41,-0.11,16.32,100705.4,58.28,54.15,54.15,0.0,vol 6,2.175,54.81241379310345
358635.0,-25.76,-6.88,1.39,5.46,0.4,-3.46,-17.44,-0.39,-0.12,16.32,100705.4,58.28,54.56,54.56,0.0,vol 6,2.185,54.81241379310345
358645.0,-25.92,-6.88,1.38,5.42,0.44,-3.41,-17.44,-0.38,-0.12,16.32,100705.4,58.28,54.93,54.93,0.0,vol 6,2.195,54.81241379310345
358655.0,-26.08,-6.9,1.38,5.38,0.45,-3.36,-17.44,-0.37,-0.12,16.32,100705.4,58.28,55.27,55.27,0.0,vol 6,2.205,54.81241379310345
358665.0,-26.22,-6.91,1.38,5.32,0.5,-3.27,-17.44,-0.37,-0.11,16.32,100687.48,59.78,55.72,55.72,0.0,vol 6,2.215,56.31241379310345
358675.0,-26.34,-6.92,1.38,5.29,0.6,-3.21,-17.44,-0.37,-0.1,16.32,100687.48,59.78,56.12,56.12,0.0,vol 6,2.225,56.31241379310345
358685.0,-26.46,-6.94,1.38,5.25,0.7,-3.13,-17.44,-0.38,-0.09,16.32,100687.48,59.78,56.49,56.49,0.0,vol 6,2.235,56.31241379310345
358694.0,-26.61,-6.97,1.38,5.21,0.75,-3.02,-17.44,-0.4,-0.07,16.32,100687.48,59.78,56.82,56.82,0.0,vol 6,2.244,56.31241379310345
358704.0,-26.76,-6.99,1.38,5.18,0.78,-2.94,-17.44,-0.43,-0.05,16.32,100670.47,61.2,57.26,57.26,0.0,vol 6,2.254,57.732413793103454
358715.0,-26.92,-7.01,1.38,5.15,0.79,-2.85,-17.44,-0.46,-0.03,16.32,100670.47,61.2,57.65,57.65,0.0,vol 6,2.265,57.732413793103454
358725.0,-27.09,-7.04,1.38,5.12,0.77,-2.78,-17.44,-0.51,-0.02,16.32,100670.47,61.2,58.01,58.01,0.0,vol 6,2.275,57.732413793103454
358734.0,-27.28,-7.03,1.38,5.09,0.71,-2.82,-17.44,-0.55,-0.02,16.32,100652.88,62.68,58.47,58.47,0.0,vol 6,2.284,59.21241379310345
358744.0,-27.48,-7.01,1.38,5.08,0.64,-2.88,-17.39,-0.59,-0.03,16.32,100652.88,62.68,58.89,58.89,0.0,vol 6,2.294,59.21241379310345
358754.0,-27.68,-7.0,1.38,5.06,0.54,-2.97,-17.31,-0.62,-0.05,16.32,100652.88,62.68,59.27,59.27,0.0,vol 6,2.304,59.21241379310345
358764.0,-27.87,-6.99,1.38,5.05,0.47,-3.01,-17.23,-0.63,-0.07,16.32,100652.88,62.68,59.61,59.61,0.0,vol 6,2.314,59.21241379310345
358775.0,-28.04,-6.98,1.38,5.04,0.46,-3.05,-17.15,-0.62,-0.11,16.32,100635.47,64.13,60.06,60.06,0.0,vol 6,2.325,60.66241379310345
358784.0,-28.21,-6.98,1.37,5.05,0.47,-3.08,-17.08,-0.61,-0.14,16.32,100635.47,64.13,60.47,60.47,0.0,vol 6,2.334,60.66241379310345
358793.0,-28.35,-6.98,1.37,5.06,0.47,-3.1,-17.02,-0.59,-0.16,16.32,100635.47,64.13,60.84,60.84,0.0,vol 6,2.343,60.66241379310345
358804.0,-28.48,-6.97,1.37,5.06,0.57,-3.14,-16.96,-0.57,-0.18,16.32,100635.47,64.13,61.17,61.17,0.0,vol 6,2.354,60.66241379310345
358814.0,-28.64,-6.98,1.37,5.06,0.63,-3.12,-16.91,-0.54,-0.2,16.32,100617.88,65.6,61.61,61.61,0.0,vol 6,2.364,62.132413793103446
358824.0,-28.81,-7.0,1.37,5.04,0.59,-3.04,-16.86,-0.51,-0.2,16.32,100617.88,65.6,62.01,62.01,0.0,vol 6,2.374,62.132413793103446
358834.0,-29.01,-7.06,1.37,5.0,0.48,-2.89,-16.8,-0.49,-0.2,16.32,100617.88,65.6,62.37,62.37,0.0,vol 6,2.384,62.132413793103446
358844.0,-29.2,-7.11,1.36,4.94,0.4,-2.74,-16.71,-0.48,-0.2,16.32,100617.88,65.6,62.69,62.69,0.0,vol 6,2.394,62.132413793103446
358854.0,-29.36,-7.13,1.36,4.89,0.38,-2.66,-16.63,-0.47,-0.22,16.32,100600.3,67.08,63.13,63.13,0.0,vol 6,2.404,63.61241379310345
358864.0,-29.51,-7.17,1.36,4.85,0.37,-2.55,-16.54,-0.47,-0.23,16.32,100600.3,67.08,63.53,63.53,0.0,vol 6,2.414,63.61241379310345
358874.0,-29.67,-7.22,1.36,4.81,0.35,-2.39,-16.44,-0.48,-0.24,16.32,100600.3,67.08,63.88,63.88,0.0,vol 6,2.424,63.61241379310345
358883.0,-29.85,-7.25,1.35,4.79,0.3,-2.32,-16.36,-0.49,-0.26,16.32,100582.72,68.55,64.35,64.35,0.0,vol 6,2.433,65.08241379310344
358893.0,-30.03,-7.25,1.35,4.75,0.24,-2.34,-16.27,-0.51,-0.28,16.32,100582.72,68.55,64.77,64.77,0.0,vol 6,2.443,65.08241379310344
358903.0,-30.23,-7.26,1.35,4.73,0.14,-2.32,-16.19,-0.51,-0.3,16.32,100582.72,68.55,65.15,65.15,0.0,vol 6,2.453,65.08241379310344
358914.0,-30.45,-7.23,1.34,4.72,-0.0,-2.4,-16.1,-0.51,-0.34,16.32,100582.72,68.55,65.49,65.49,0.0,vol 6,2.464,65.08241379310344
358923.0,-30.6,-7.19,1.34,4.71,-0.0,-2.52,-16.0,-0.5,-0.38,16.32,100565.13,70.02,65.94,65.94,0.0,vol 6,2.473,66.55241379310344
358933.0,-30.73,-7.16,1.34,4.69,0.06,-2.59,-15.93,-0.47,-0.41,16.32,100565.13,70.02,66.35,66.35,0.0,vol 6,2.483,66.55241379310344
358943.0,-30.82,-7.14,1.33,4.66,0.19,-2.63,-15.86,-0.43,-0.44,16.32,100565.13,70.02,66.72,66.72,0.0,vol 6,2.493,66.55241379310344
358953.0,-30.88,-7.15,1.33,4.61,0.41,-2.58,-15.81,-0.39,-0.45,16.32,100565.13,70.02,67.05,67.05,0.0,vol 6,2.503,66.55241379310344
358963.0,-30.93,-7.15,1.32,4.56,0.62,-2.49,-15.75,-0.35,-0.44,16.32,100548.05,71.45,67.49,67.49,0.0,vol 6,2.513,67.98241379310345
358973.0,-31.01,-7.17,1.32,4.5,0.77,-2.39,-15.7,-0.31,-0.4,16.32,100548.05,71.45,67.88,67.88,0.0,vol 6,2.523,67.98241379310345
358983.0,-31.12,-7.18,1.32,4.45,0.86,-2.3,-15.65,-0.3,-0.35,16.32,100548.05,71.45,68.24,68.24,0.0,vol 6,2.533,67.98241379310345
358995.0,-31.23,-7.25,1.31,4.41,0.95,-2.05,-15.6,-0.31,-0.29,16.32,100530.97,72.85,68.7,68.7,0.0,vol 6,2.545,69.38241379310344
359004.0,-31.4,-7.34,1.31,4.37,0.88,-1.84,-15.53,-0.34,-0.23,16.33,100531.38,72.85,69.12,69.12,0.0,vol 6,2.554,69.38241379310344
359015.0,-31.56,-7.4,1.31,4.34,0.84,-1.71,-15.47,-0.39,-0.19,16.33,100531.38,72.85,69.49,69.49,0.0,vol 6,2.565,69.38241379310344
359025.0,-31.71,-7.44,1.31,4.32,0.87,-1.6,-15.41,-0.46,-0.16,16.33,100531.38,72.85,69.83,69.83,0.0,vol 6,2.575,69.38241379310344
359035.0,-31.83,-7.45,1.31,4.3,0.91,-1.54,-15.34,-0.53,-0.14,16.33,100514.45,74.27,70.27,70.27,0.0,vol 6,2.585,70.80241379310344
359045.0,-31.99,-7.45,1.3,4.27,0.88,-1.56,-15.27,-0.61,-0.13,16.33,100514.45,74.27,70.67,70.67,0.0,vol 6,2.595,70.80241379310344
359055.0,-32.16,-7.45,1.3,4.24,0.81,-1.59,-15.2,-0.68,-0.13,16.33,100514.45,74.27,71.03,71.03,0.0,vol 6,2.605,70.80241379310344
359065.0,-32.37,-7.42,1.3,4.21,0.7,-1.73,-15.13,-0.74,-0.14,16.33,100514.45,74.27,71.35,71.35,0.0,vol 6,2.615,70.80241379310344
359075.0,-32.55,-7.37,1.3,4.21,0.64,-1.88,-15.07,-0.79,-0.17,16.33,100497.72,75.67,71.78,71.78,0.0,vol 6,2.625,72.20241379310345
359085.0,-32.71,-7.34,1.3,4.2,0.6,-1.99,-15.02,-0.81,-0.21,16.33,100497.72,75.67,72.17,72.17,0.0,vol 6,2.635,72.20241379310345
359095.0,-32.87,-7.27,1.3,4.21,0.55,-2.19,-14.97,-0.81,-0.25,16.33,100497.72,75.67,72.52,72.52,0.0,vol 6,2.645,72.20241379310345
359105.0,-33.04,-7.2,1.29,4.21,0.51,-2.38,-14.93,-0.79,-0.29,16.33,100497.72,77.09,72.98,72.98,0.0,vol 6,2.655,73.62241379310345
359115.0,-33.18,-7.12,1.29,4.2,0.56,-2.59,-14.9,-0.75,-0.33,16.33,100480.8,77.09,73.39,73.39,0.0,vol 6,2.665,73.62241379310345
359125.0,-33.24,-7.08,1.29,4.2,0.74,-2.69,-14.89,-0.69,-0.35,16.33,100480.8,77.09,73.76,73.76,0.0,vol 6,2.675,73.62241379310345
359137.0,-33.31,-7.06,1.28,4.16,0.94,-2.67,-14.9,-0.61,-0.35,16.33,100480.8,77.09,74.09,74.09,0.0,vol 6,2.687,73.62241379310345
359147.0,-33.39,-7.05,1.28,4.1,1.07,-2.6,-14.9,-0.55,-0.33,16.33,100463.89,78.5,74.53,74.53,0.0,vol 6,2.697,75.03241379310344
359157.0,-33.47,-7.07,1.28,4.06,1.17,-2.49,-14.9,-0.5,-0.28,16.33,100463.89,78.5,74.93,74.93,0.0,vol 6,2.707,75.03241379310344
359167.0,-33.61,-7.11,1.27,4.03,1.19,-2.37,-14.89,-0.48,-0.23,16.33,100463.89,78.5,75.29,75.29,0.0,vol 6,2.717,75.03241379310344
359177.0,-33.75,-7.16,1.27,4.0,1.17,-2.24,-14.87,-0.47,-0.17,16.33,100463.89,78.5,75.61,75.61,0.0,vol 6,2.727,75.03241379310344
359187.0,-33.89,-7.23,1.27,3.98,1.11,-2.05,-14.84,-0.47,-0.12,16.33,100446.97,79.92,76.04,76.04,0.0,vol 6,2.737,76.45241379310345
359197.0,-34.04,-7.29,1.27,3.95,1.08,-1.91,-14.81,-0.5,-0.07,16.33,100446.97,79.92,76.43,76.43,0.0,vol 6,2.747,76.45241379310345
359207.0,-34.22,-7.37,1.27,3.94,0.98,-1.76,-14.76,-0.55,-0.03,16.33,100446.97,79.92,76.78,76.78,0.0,vol 6,2.757,76.45241379310345
359217.0,-34.42,-7.44,1.27,3.91,0.85,-1.67,-14.71,-0.6,-0.02,16.33,100430.39,81.28,77.23,77.23,0.0,vol 6,2.767,77.81241379310345
359227.0,-34.68,-7.49,1.27,3.9,0.66,-1.66,-14.65,-0.67,-0.02,16.33,100430.8,81.28,77.63,77.63,0.0,vol 6,2.777,77.81241379310345
359237.0,-34.91,-7.49,1.27,3.9,0.48,-1.72,-14.59,-0.73,-0.04,16.33,100430.8,81.28,78.0,78.0,0.0,vol 6,2.787,77.81241379310345
359247.0,-35.12,-7.46,1.27,3.9,0.36,-1.83,-14.54,-0.77,-0.09,16.33,100430.8,81.28,78.33,78.33,0.0,vol 6,2.797,77.81241379310345
359257.0,-35.29,-7.4,1.27,3.91,0.3,-1.99,-14.49,-0.8,-0.15,16.33,100413.98,82.69,78.76,78.76,0.0,vol 6,2.807,79.22241379310344
359267.0,-35.44,-7.34,1.26,3.9,0.29,-2.15,-14.44,-0.8,-0.21,16.33,100413.98,82.69,79.16,79.16,0.0,vol 6,2.817,79.22241379310344
359277.0,-35.57,-7.28,1.26,3.88,0.31,-2.29,-14.4,-0.78,-0.27,16.33,100413.98,82.69,79.51,79.51,0.0,vol 6,2.827,79.22241379310344
359287.0,-35.7,-7.23,1.26,3.87,0.33,-2.41,-14.37,-0.75,-0.32,16.33,100413.98,82.69,79.83,79.83,0.0,vol 6,2.837,79.22241379310344
359297.0,-35.79,-7.18,1.25,3.85,0.43,-2.52,-14.34,-0.69,-0.36,16.33,100397.74,84.05,80.25,80.25,0.0,vol 6,2.847,80.58241379310344
359307.0,-35.87,-7.15,1.25,3.82,0.52,-2.58,-14.33,-0.63,-0.38,16.33,100397.74,84.05,80.63,80.63,0.0,vol 6,2.857,80.58241379310344
359317.0,-35.93,-7.12,1.25,3.78,0.66,-2.61,-14.31,-0.56,-0.39,16.33,100397.74,84.05,80.97,80.97,0.0,vol 6,2.867,80.58241379310344
359327.0,-36.0,-7.08,1.24,3.74,0.82,-2.64,-14.3,-0.48,-0.38,16.33,100397.74,85.39,81.41,81.41,0.0,vol 6,2.877,81.92241379310344
359337.0,-36.07,-7.06,1.24,3.69,0.97,-2.6,-14.29,-0.4,-0.35,16.33,100381.73,85.39,81.81,81.81,0.0,vol 6,2.887,81.92241379310344
359347.0,-36.16,-7.08,1.24,3.64,1.04,-2.5,-14.28,-0.34,-0.29,16.33,100381.73,85.39,82.17,82.17,0.0,vol 6,2.897,81.92241379310344
359358.0,-36.28,-7.12,1.23,3.6,1.04,-2.36,-14.27,-0.29,-0.23,16.33,100381.73,85.39,82.49,82.49,0.0,vol 6,2.908,81.92241379310344
359368.0,-36.44,-7.18,1.23,3.55,0.98,-2.21,-14.24,-0.27,-0.17,16.33,100365.26,86.78,82.92,82.92,0.0,vol 6,2.918,83.31241379310345
359378.0,-36.62,-7.25,1.23,3.51,0.87,-2.07,-14.21,-0.27,-0.11,16.33,100365.26,86.78,83.31,83.31,0.0,vol 6,2.928,83.31241379310345
359388.0,-36.8,-7.29,1.23,3.47,0.79,-1.99,-14.18,-0.28,-0.07,16.33,100365.26,86.78,83.65,83.65,0.0,vol 6,2.938,83.31241379310345
359398.0,-36.98,-7.33,1.23,3.44,0.7,-1.93,-14.13,-0.31,-0.03,16.33,100365.26,86.78,83.97,83.97,0.0,vol 6,2.948,83.31241379310345
359408.0,-37.17,-7.33,1.23,3.43,0.6,-1.96,-14.09,-0.34,-0.01,16.33,100349.19,88.12,84.38,84.38,0.0,vol 6,2.958,84.65241379310345
359418.0,-37.34,-7.29,1.23,3.42,0.56,-2.05,-14.06,-0.37,0.0,16.33,100349.19,88.12,84.76,84.76,0.0,vol 6,2.968,84.65241379310345
359428.0,-37.54,-7.27,1.23,3.41,0.45,-2.14,-14.04,-0.39,0.01,16.33,100349.19,88.12,85.09,85.09,0.0,vol 6,2.978,84.65241379310345
359438.0,-37.75,-7.26,1.23,3.4,0.31,-2.17,-14.01,-0.4,0.0,16.33,100349.19,89.43,85.53,85.53,0.0,vol 6,2.988,85.96241379310345
359449.0,-37.91,-7.26,1.23,3.39,0.25,-2.18,-13.98,-0.41,-0.02,16.33,100333.67,89.43,85.92,85.92,0.0,vol 6,2.999,85.96241379310345
359459.0,-38.05,-7.26,1.23,3.37,0.28,-2.18,-13.96,-0.41,-0.04,16.33,100333.67,89.43,86.27,86.27,0.0,vol 6,3.009,85.96241379310345
359469.0,-38.13,-7.24,1.23,3.37,0.36,-2.21,-13.93,-0.4,-0.06,16.33,100333.67,89.43,86.58,86.58,0.0,vol 6,3.019,85.96241379310345
359479.0,-38.19,-7.24,1.23,3.34,0.5,-2.18,-13.89,-0.39,-0.07,16.33,100318.1,90.73,87.0,87.0,0.0,vol 6,3.029,87.26241379310345
359489.0,-38.26,-7.23,1.23,3.31,0.6,-2.17,-13.86,-0.39,-0.07,16.33,100318.1,90.73,87.37,87.37,0.0,vol 6,3.039,87.26241379310345
359500.0,-38.37,-7.23,1.23,3.29,0.66,-2.14,-13.83,-0.38,-0.06,16.33,100318.1,90.73,87.71,87.71,0.0,vol 6,3.05,87.26241379310345
359510.0,-38.48,-7.24,1.23,3.25,0.69,-2.08,-13.8,-0.38,-0.04,16.33,100318.1,90.73,88.01,88.01,0.0,vol 6,3.06,87.26241379310345
359520.0,-38.6,-7.3,1.23,3.22,0.68,-1.95,-13.76,-0.39,-0.03,16.33,100302.7,92.02,88.41,88.41,0.0,vol 6,3.07,88.55241379310344
359530.0,-38.75,-7.38,1.23,3.2,0.64,-1.8,-13.73,-0.41,-0.01,16.33,100302.7,92.02,88.77,88.77,0.0,vol 6,3.08,88.55241379310344
359540.0,-38.92,-7.45,1.23,3.19,0.57,-1.68,-13.72,-0.44,-0.01,16.33,100302.7,92.02,89.1,89.1,0.0,vol 6,3.09,88.55241379310344
359550.0,-39.1,-7.52,1.23,3.17,0.47,-1.58,-13.69,-0.48,-0.01,16.33,100287.46,93.3,89.52,89.52,0.0,vol 6,3.1,89.83241379310344
359560.0,-39.29,-7.56,1.23,3.16,0.38,-1.53,-13.65,-0.53,-0.03,16.33,100287.46,93.3,89.9,89.9,0.0,vol 6,3.11,89.83241379310344
359570.0,-39.47,-7.58,1.23,3.15,0.3,-1.52,-13.6,-0.57,-0.06,16.33,100287.46,93.3,90.24,90.24,0.0,vol 6,3.12,89.83241379310344
359580.0,-39.61,-7.58,1.22,3.14,0.3,-1.53,-13.55,-0.6,-0.1,16.33,100287.46,93.3,90.54,90.54,0.0,vol 6,3.13,89.83241379310344
359590.0,-39.68,-7.6,1.22,3.12,0.38,-1.47,-13.49,-0.63,-0.14,16.33,100272.56,94.55,90.94,90.94,0.0,vol 6,3.14,91.08241379310344
359600.0,-39.78,-7.64,1.22,3.1,0.41,-1.4,-13.44,-0.66,-0.18,16.33,100272.56,94.55,91.31,91.31,0.0,vol 6,3.15,91.08241379310344
359610.0,-39.9,-7.68,1.22,3.09,0.4,-1.34,-13.39,-0.69,-0.22,16.33,100272.56,94.55,91.63,91.63,0.0,vol 6,3.16,91.08241379310344
359620.0,-40.04,-7.72,1.22,3.07,0.38,-1.29,-13.34,-0.71,-0.26,16.33,100272.56,94.55,91.92,91.92,0.0,vol 6,3.17,91.08241379310344
359630.0,-40.2,-7.74,1.21,3.06,0.35,-1.26,-13.28,-0.74,-0.31,16.33,100258.05,95.77,92.31,92.31,0.0,vol 6,3.18,92.30241379310344
359640.0,-40.33,-7.75,1.21,3.06,0.33,-1.27,-13.23,-0.76,-0.36,16.33,100258.05,95.77,92.65,92.65,0.0,vol 6,3.19,92.30241379310344
359650.0,-40.45,-7.73,1.21,3.06,0.34,-1.31,-13.18,-0.77,-0.41,16.33,100258.05,95.77,92.97,92.97,0.0,vol 6,3.2,92.30241379310344
359660.0,-40.55,-7.69,1.2,3.05,0.39,-1.36,-13.13,-0.77,-0.46,16.33,100258.05,95.77,93.25,93.25,0.0,vol 6,3.21,92.30241379310344
359669.0,-40.63,-7.67,1.2,3.03,0.45,-1.39,-13.08,-0.77,-0.5,16.33,100243.48,97.0,93.62,93.62,0.0,vol 6,3.219,93.53241379310344
359679.0,-40.71,-7.65,1.19,3.03,0.51,-1.41,-13.04,-0.75,-0.54,16.33,100243.48,97.0,93.96,93.96,0.0,vol 6,3.229,93.53241379310344
359689.0,-40.79,-7.64,1.19,3.02,0.58,-1.4,-13.0,-0.73,-0.57,16.33,100243.48,97.0,94.26,94.26,0.0,vol 6,3.239,93.53241379310344
359699.0,-40.85,-7.62,1.18,3.01,0.68,-1.41,-12.97,-0.71,-0.59,16.33,100229.08,98.21,94.66,94.66,0.0,vol 6,3.249,94.74241379310344
359709.0,-40.91,-7.6,1.17,2.98,0.76,-1.4,-12.93,-0.68,-0.6,16.33,100229.08,98.21,95.01,95.01,0.0,vol 6,3.259,94.74241379310344
359719.0,-40.99,-7.6,1.17,2.95,0.82,-1.35,-12.9,-0.66,-0.6,16.33,100229.08,98.21,95.33,95.33,0.0,vol 6,3.269,94.74241379310344
359729.0,-41.08,-7.6,1.16,2.93,0.87,-1.33,-12.87,-0.65,-0.59,16.33,100229.08,98.21,95.62,95.62,0.0,vol 6,3.279,94.74241379310344
359739.0,-41.17,-7.6,1.16,2.9,0.9,-1.31,-12.84,-0.63,-0.57,16.33,100214.85,99.4,96.0,96.0,0.0,vol 6,3.289,95.93241379310344
359749.0,-41.28,-7.6,1.15,2.87,0.92,-1.28,-12.81,-0.63,-0.56,16.33,100214.85,99.4,96.34,96.34,0.0,vol 6,3.299,95.93241379310344
359759.0,-41.4,-7.62,1.14,2.85,0.91,-1.24,-12.78,-0.62,-0.54,16.33,100214.85,99.4,96.64,96.64,0.0,vol 6,3.309,95.93241379310344
359769.0,-41.53,-7.64,1.14,2.83,0.89,-1.23,-12.74,-0.62,-0.52,16.33,100214.85,99.4,96.92,96.92,0.0,vol 6,3.319,95.93241379310344
359779.0,-41.66,-7.63,1.13,2.82,0.88,-1.25,-12.71,-0.63,-0.5,16.33,100200.79,100.58,97.29,97.29,0.0,vol 6,3.329,97.11241379310344
359789.0,-41.77,-7.61,1.13,2.8,0.88,-1.28,-12.67,-0.63,-0.48,16.33,100200.79,100.58,97.62,97.62,0.0,vol 6,3.339,97.11241379310344
359799.0,-41.88,-7.58,1.13,2.77,0.89,-1.32,-12.64,-0.64,-0.47,16.33,100200.79,100.58,97.91,97.91,0.0,vol 6,3.349,97.11241379310344
359808.0,-42.01,-7.56,1.12,2.76,0.88,-1.36,-12.61,-0.64,-0.45,16.33,100200.79,101.75,98.3,98.3,0.0,vol 6,3.358,98.28241379310344
359818.0,-42.15,-7.54,1.12,2.74,0.85,-1.42,-12.58,-0.63,-0.44,16.33,100186.89,101.75,98.64,98.64,0.0,vol 6,3.368,98.28241379310344
359828.0,-42.3,-7.53,1.11,2.72,0.81,-1.48,-12.55,-0.63,-0.42,16.33,100186.89,101.75,98.95,98.95,0.0,vol 6,3.378,98.28241379310344
359838.0,-42.44,-7.5,1.11,2.7,0.79,-1.54,-12.51,-0.62,-0.41,16.33,100186.89,101.75,99.23,99.23,0.0,vol 6,3.388,98.28241379310344
359848.0,-42.57,-7.47,1.1,2.68,0.77,-1.59,-12.48,-0.6,-0.39,16.33,100173.56,102.87,99.6,99.6,0.0,vol 6,3.398,99.40241379310343
359858.0,-42.69,-7.45,1.1,2.66,0.77,-1.62,-12.45,-0.59,-0.38,16.33,100173.56,102.87,99.92,99.92,0.0,vol 6,3.408,99.40241379310343
359868.0,-42.79,-7.44,1.1,2.65,0.79,-1.63,-12.43,-0.57,-0.37,16.33,100173.56,102.87,100.22,100.22,0.0,vol 6,3.418,99.40241379310343
359878.0,-42.9,-7.43,1.09,2.63,0.81,-1.65,-12.4,-0.56,-0.35,16.33,100173.56,102.87,100.48,100.48,0.0,vol 6,3.428,99.40241379310343
359888.0,-43.03,-7.41,1.09,2.62,0.8,-1.68,-12.37,-0.54,-0.33,16.33,100159.83,104.02,100.84,100.84,0.0,vol 6,3.438,100.55241379310344
359898.0,-43.15,-7.39,1.09,2.6,0.79,-1.72,-12.34,-0.53,-0.31,16.33,100159.83,104.02,101.16,101.16,0.0,vol 6,3.448,100.55241379310344
359908.0,-43.25,-7.37,1.08,2.59,0.82,-1.75,-12.32,-0.51,-0.28,16.33,100159.83,104.02,101.44,101.44,0.0,vol 6,3.458,100.55241379310344
359918.0,-43.34,-7.35,1.08,2.58,0.86,-1.78,-12.3,-0.5,-0.26,16.33,100159.83,104.02,101.7,101.7,0.0,vol 6,3.468,100.55241379310344
359928.0,-43.44,-7.32,1.08,2.55,0.9,-1.8,-12.28,-0.48,-0.23,16.33,100146.6,105.13,102.04,102.04,0.0,vol 6,3.478,101.66241379310344
359938.0,-43.53,-7.3,1.08,2.52,0.92,-1.81,-12.26,-0.47,-0.19,16.33,100146.6,105.13,102.35,102.35,0.0,vol 6,3.488,101.66241379310344
359949.0,-43.63,-7.3,1.08,2.5,0.94,-1.79,-12.24,-0.46,-0.15,16.33,100146.6,105.13,102.63,102.63,0.0,vol 6,3.499,101.66241379310344
359958.0,-43.72,-7.31,1.08,2.47,0.96,-1.73,-12.22,-0.45,-0.11,16.33,100133.54,106.23,102.99,102.99,0.0,vol 6,3.508,102.76241379310343
359968.0,-43.83,-7.34,1.07,2.45,0.96,-1.68,-12.2,-0.46,-0.07,16.33,100133.54,106.23,103.31,103.31,0.0,vol 6,3.518,102.76241379310343
359978.0,-43.95,-7.36,1.07,2.43,0.94,-1.63,-12.18,-0.47,-0.03,16.33,100133.54,106.23,103.61,103.61,0.0,vol 6,3.528,102.76241379310343
359988.0,-44.07,-7.39,1.07,2.41,0.93,-1.58,-12.16,-0.49,0.0,16.33,100133.54,106.23,103.87,103.87,0.0,vol 6,3.538,102.76241379310343
359998.0,-44.19,-7.4,1.07,2.39,0.91,-1.56,-12.14,-0.51,0.03,16.33,100120.65,107.32,104.21,104.21,0.0,vol 6,3.548,103.85241379310344
360009.0,-44.34,-7.41,1.08,2.37,0.87,-1.55,-12.11,-0.55,0.06,16.33,100120.65,107.32,104.52,104.52,0.0,vol 6,3.559,103.85241379310344
360019.0,-44.49,-7.43,1.08,2.37,0.83,-1.55,-12.08,-0.58,0.08,16.33,100120.65,107.32,104.8,104.8,0.0,vol 6,3.569,103.85241379310344
360029.0,-44.61,-7.43,1.08,2.35,0.8,-1.55,-12.06,-0.62,0.09,16.33,100120.65,107.32,105.05,105.05,0.0,vol 6,3.579,103.85241379310344
360039.0,-44.78,-7.45,1.08,2.33,0.75,-1.55,-12.02,-0.66,0.09,16.33,100108.09,108.37,105.39,105.39,0.0,vol 6,3.589,104.90241379310343
360050.0,-44.93,-7.46,1.08,2.33,0.71,-1.55,-11.99,-0.69,0.09,16.33,100108.09,108.37,105.68,105.68,0.0,vol 6,3.6,104.90241379310343
360060.0,-45.06,-7.46,1.08,2.32,0.69,-1.58,-11.95,-0.72,0.08,16.33,100108.09,108.37,105.95,105.95,0.0,vol 6,3.61,104.90241379310343
360070.0,-45.21,-7.46,1.08,2.32,0.65,-1.59,-11.92,-0.75,0.07,16.33,100096.03,109.38,106.3,106.3,0.0,vol 6,3.62,105.91241379310344
360080.0,-45.33,-7.45,1.08,2.31,0.62,-1.62,-11.88,-0.78,0.05,16.33,100096.03,109.38,106.61,106.61,0.0,vol 6,3.63,105.91241379310344
360090.0,-45.45,-7.45,1.08,2.3,0.62,-1.64,-11.84,-0.8,0.03,16.33,100096.03,109.38,106.88,106.88,0.0,vol 6,3.64,105.91241379310344
360100.0,-45.55,-7.44,1.08,2.28,0.64,-1.64,-11.8,-0.82,0.01,16.33,100096.03,109.38,107.13,107.13,0.0,vol 6,3.65,105.91241379310344
360109.0,-45.65,-7.45,1.08,2.29,0.65,-1.65,-11.77,-0.83,-0.02,16.34,100084.05,110.39,107.46,107.46,0.0,vol 6,3.659,106.92241379310344
360119.0,-45.74,-7.45,1.08,2.27,0.68,-1.64,-11.74,-0.84,-0.04,16.34,100084.05,110.39,107.75,107.75,0.0,vol 6,3.669,106.92241379310344
360129.0,-45.83,-7.45,1.08,2.26,0.7,-1.63,-11.7,-0.84,-0.06,16.34,100084.05,110.39,108.02,108.02,0.0,vol 6,3.679,106.92241379310344
360139.0,-45.92,-7.45,1.08,2.25,0.73,-1.62,-11.67,-0.85,-0.08,16.34,100084.05,110.39,108.25,108.25,0.0,vol 6,3.689,106.92241379310344
360150.0,-46.0,-7.46,1.08,2.24,0.76,-1.6,-11.64,-0.85,-0.09,16.34,100071.82,111.42,108.57,108.57,0.0,vol 6,3.7,107.95241379310345
360160.0,-46.1,-7.46,1.08,2.23,0.77,-1.59,-11.6,-0.86,-0.1,16.34,100071.82,111.42,108.86,108.86,0.0,vol 6,3.71,107.95241379310345
